[
  {
    "id": 1,
    "name": "Nikiszowiec",
    "lat": 50.2437359922774,
    "lon": 19.08208185760909,
    "icon": "historic"
  },
  {
    "id": 2,
    "name": "Śląski Ogród Zoologiczny w Katowicach",
    "lat": 50.280767115863185,
    "lon": 18.990875799859605,
    "icon": "park"
  },
  {
    "id": 3,
    "name": "Muzeum Śląskie w Katowicach",
    "lat": 50.26354948981424,
    "lon": 19.034268844087595,
    "icon": "historic"
  },
  {
    "id": 4,
    "name": "Dolina Trzech Stawów",
    "lat": 50.248544876321304,
    "lon": 19.046759611669568,
    "icon": "park",
    "nn": "niej"
  },
  {
    "id": 5,
    "name": "Śląskie Muzeum Wolności i Solidarności",
    "lat": 50.24419020226595,
    "lon": 18.9900517803838,
    "icon": "historic"
  },
  {
    "id": 6,
    "name": "Muzeum Historii Gitary",
    "lat": 50.25556272317484,
    "lon": 19.016724839370212,
    "icon": "historic"
  },
  {
    "id": 7,
    "name": "Galeria Szyb Wilson",
    "lat": 50.2507461765957,
    "lon": 19.083637114777282,
    "icon": "galery",
    "name2": "Galerię Szyb Wilson",
    "nn": "niej"
  },
  {
    "id": 8,
    "name": "Teatr Śląski imienia Stanisława Wyspiańskiego",
    "lat": 50.2597749980549,
    "lon": 19.02280199943527,
    "icon": "theater"
  },
  {
    "id": 9,
    "name": "Wieża spadochronowa",
    "lat": 50.24639530793225,
    "lon": 19.007726312927698,
    "icon": "view",
    "name2": "Wieżę spadochronową",
    "nn": "niej"
  }
]
